[[{"id":"20103","name":"ERICKSON DRUG INC","address":"20751 HOLYOKE AVE W","city":"LAKEVILLE","state":"MN","zip":"55044","phone":"","lat":"44.6487612","lng":"-93.2428412","highlight":"0","published":"1","dist":8.90134067221
{"id":"8095","name":"NORTHFIELD PHARMACY","address":"601 S WATER ST","city":"NORTHFIELD","state":"MN","zip":"55057","phone":"","lat":"44.4539676","lng":"-93.1617165","highlight":"0","published":"1","dist":18.5672005331
{"id":"8016","name":"NORTHFIELD VILLAGE DRUG","address":"700 DIVISION ST","city":"NORTHFIELD","state":"MN","zip":"55057","phone":"","lat":"44.4528389","lng":"-93.1601795","highlight":"0","published":"1","dist":18.6801052746
{"id":"8041","name":"REGINA MEDICAL CENTER PHARMACY","address":"1175 NININGER RD","city":"HASTINGS","state":"MN","zip":"55033","phone":"","lat":"44.7482460","lng":"-92.8735650","highlight":"0","published":"1","dist":25.2897517704
{"id":"8037","name":"BLOOMINGTON DRUG","address":"509 W 98TH ST","city":"BLOOMINGTON","state":"MN","zip":"55420","phone":"","lat":"44.8263477","lng":"-93.2860464","highlight":"0","published":"1","dist":25.7531791795
{"id":"67956","name":"Coagulife Pharmacy","address":"8690 Eagle Creek Parkway","city":"Savage","state":"MN","zip":"55378    ","phone":"(952) 886-9200","lat":"44.7695905","lng":"-93.3887897","highlight":"0","published":"1","dist":25.8832974936
{"id":"67969","name":"Prime Therapeutics Llc","address":"1305 Corporate Center Dr","city":"Eagan","state":"MN","zip":"55121    ","phone":"(888) 216-6710","lat":"44.859034","lng":"-93.163494","highlight":"0","published":"1","dist":26.6482880236
{"id":"8203","name":"HERRMANN THRIFTY WHITE PHARMACY","address":"744 ASH ST NE","city":"LONSDALE","state":"MN","zip":"55046","phone":"","lat":"44.4802710","lng":"-93.4172139","highlight":"1","published":"1","dist":27.0524182859
{"id":"67937","name":"Geritom Med Inc","address":"10501 Florida Ave So","city":"Bloomington","state":"MN","zip":"55438    ","phone":"(952) 854-1190","lat":"44.81347","lng":"-93.36519","highlight":"0","published":"1","dist":28.02159808
{"id":"67960","name":"Shakopee Mdewakanton Sioux Comm Phcy","address":"15045 Mystic Lake Dr Nw","city":"Prior Lake","state":"MN","zip":"55372    ","phone":"(952) 233-2900","lat":"44.731343","lng":"-93.468974","highlight":"0","published":"1","dist":28.9605562127
{"id":"17655","name":"MOST PHARMACY","address":"201 N BROAD ST","city":"PRESCOTT","state":"WI","zip":"54021","phone":"","lat":"44.7485540","lng":"-92.8015902","highlight":"0","published":"1","dist":30.177454029
{"id":"7963","name":"NEWPORT DRUG","address":"1644 HASTINGS AVE","city":"NEWPORT","state":"MN","zip":"55055","phone":"","lat":"44.8746675","lng":"-93.0008507","highlight":"0","published":"1","dist":30.3054250695
{"id":"20089","name":"PRO PHARMACY II INC","address":"102 5TH AVE S","city":"SOUTH ST PAUL","state":"MN","zip":"55075","phone":"","lat":"44.8897272","lng":"-93.0399130","highlight":"0","published":"1","dist":30.96450183
{"id":"68001","name":"Custom Rx Llc","address":"6519 Nicollet Ave Ste 201","city":"Richfield","state":"MN","zip":"55423-1669","phone":"(612) 866-2211","lat":"44.884486","lng":"-93.277447","highlight":"0","published":"1","dist":31.4006122562
{"id":"20161","name":"TWIN CITIES COMPOUNDING PHARMACY","address":"1746 FORD PARKWAY","city":"ST PAUL","state":"MN","zip":"55116","phone":"","lat":"44.9176790","lng":"-93.1741030","highlight":"0","published":"1","dist":33.2157789655
{"id":"8028","name":"WEST SEVENTH PHARMACY","address":"1106 W 7TH ST","city":"ST PAUL","state":"MN","zip":"55102","phone":"","lat":"44.9251950","lng":"-93.1301000","highlight":"0","published":"1","dist":33.9332424202
{"id":"20146","name":"DRUG EXPRESS AND VARIETY GALORE","address":"1101 1ST ST NE","city":"NEW PRAGUE","state":"MN","zip":"56071","phone":"","lat":"44.5439237","lng":"-93.5607671","highlight":"0","published":"1","dist":34.550516551
{"id":"67951","name":"Westside Community Health Services Inc","address":"153 Cesar Chavez St","city":"St Paul","state":"MN","zip":"55107    ","phone":"(651) 602-7589","lat":"44.9300736","lng":"-93.0783596","highlight":"0","published":"1","dist":34.7882844974
{"id":"8029","name":"ST PAUL CORNER DRUG","address":"240 S SNELLING AVE","city":"ST PAUL","state":"MN","zip":"55105","phone":"","lat":"44.9342901","lng":"-93.1669914","highlight":"0","published":"1","dist":35.0149051157
{"id":"8074","name":"PRO PHARMACY INC","address":"242 S CLEVELAND","city":"ST PAUL","state":"MN","zip":"55105","phone":"","lat":"44.9343015","lng":"-93.1873520","highlight":"0","published":"1","dist":35.1584467843
,[44.6200752,-93.1378173,null]][[{"id":"7973","name":"ROLSETH DRUG CO","address":"107 LAKE ST N","city":"FOREST LAKE","state":"MN","zip":"55025","phone":"","lat":"45.2814679","lng":"-92.9842402","highlight":"0","published":"1","dist":0.556957140725
{"id":"8065","name":"WYOMING DRUG","address":"26710 FOREST BLVD","city":"WYOMING","state":"MN","zip":"55092","phone":"","lat":"45.3357067","lng":"-92.9985800","highlight":"0","published":"1","dist":6.32308207209
{"id":"8072","name":"CHISAGO DRUG","address":"10655 RAILROAD AVE","city":"CHISAGO CITY","state":"MN","zip":"55013","phone":"","lat":"45.3726093","lng":"-92.8903212","highlight":"0","published":"1","dist":13.0166329404
{"id":"8064","name":"LINDSTROM THRIFTY WHITE PHARMACY","address":"30699 LINCOLNROAD","city":"LINDSTROM","state":"MN","zip":"55045","phone":"","lat":"45.3925912","lng":"-92.8568254","highlight":"0","published":"1","dist":16.3832733625
{"id":"8046","name":"GORDYS PHARMACY","address":"320 SUMMIT AVE","city":"CENTER CITY","state":"MN","zip":"55012","phone":"","lat":"45.3925281","lng":"-92.8168375","highlight":"0","published":"1","dist":18.5293437703
{"id":"20090","name":"MEDICINE CHEST PHCY AND CAMERA","address":"2187 4TH ST","city":"WHITE BEAR LAKE","state":"MN","zip":"55110","phone":"","lat":"45.0856130","lng":"-93.0082520","highlight":"0","published":"1","dist":21.5622511611
{"id":"8204","name":"GOODRICH PHARMACY BLAINE","address":"11855 ULYSSES ST NE","city":"BLANE","state":"MN","zip":"55434","phone":"","lat":"45.1855534","lng":"-93.2377668","highlight":"0","published":"1","dist":21.9790122338
{"id":"17679","name":"OSCEOLA PHARMACY","address":"120 CASCADE ST N","city":"OSCEOLA","state":"WI","zip":"54020","phone":"","lat":"45.3199791","lng":"-92.7058711","highlight":"0","published":"1","dist":22.723295049
{"id":"17698","name":"CLINIC PHARMACY","address":"2600 65TH AVE","city":"OSCEOLA","state":"WI","zip":"54020","phone":"","lat":"45.3020947","lng":"-92.7003350","highlight":"0","published":"1","dist":22.8443836934
{"id":"67940","name":"Midwest Medical Holdings Llc","address":"8400 Coral Sea St Ne 100","city":"Mounds View","state":"MN","zip":"55112    ","phone":"(763) 780-1500","lat":"45.122552","lng":"-93.199811","highlight":"0","published":"1","dist":23.9160282172
{"id":"20154","name":"RX EXPRESS","address":"8400 CORAL SEA ST NE","city":"MOUNDS VIEW","state":"MN","zip":"55112","phone":"","lat":"45.1225520","lng":"-93.1998110","highlight":"0","published":"1","dist":23.9160282172
{"id":"67930","name":"Crosstown Drug Inc","address":"8400 Coral Sea Street Ne","city":"Mounds View","state":"MN","zip":"55112    ","phone":"(763) 780-0218","lat":"45.122552","lng":"-93.199811","highlight":"0","published":"1","dist":23.9160282172
{"id":"8143","name":"GOODRICH PHARMACY ANDOVER","address":"15245 BLUE BIRD ST NW","city":"ANDOVER","state":"MN","zip":"55304","phone":"","lat":"45.2471739","lng":"-93.3043134","highlight":"0","published":"1","dist":24.8136990135
{"id":"67996","name":"White Bear Health Mart Llc","address":"2008 East County Road E","city":"White Bear Lake","state":"MN","zip":"55110-7333","phone":"(651) 289-4300","lat":"45.0502626","lng":"-93.0164166","highlight":"0","published":"1","dist":25.52905036
{"id":"20128","name":"COUNTY VALU PHARMACY","address":"615 MAIN ST","city":"NORTH BRANCH","state":"MN","zip":"55056","phone":"","lat":"45.5114329","lng":"-92.9775477","highlight":"0","published":"1","dist":25.8514240009
{"id":"67953","name":"Merwin Long Term Care Inc","address":"1811 Old Highway 8","city":"New Brighton","state":"MN","zip":"55112    ","phone":"(651) 604-5400","lat":"45.077377","lng":"-93.187067","highlight":"0","published":"1","dist":27.213203256
{"id":"8086","name":"HEALTHEAST PHARMACY MAPLEWOOD","address":"1655 BEAM AVE","city":"MAPLEWOOD","state":"MN","zip":"55109","phone":"","lat":"45.0290570","lng":"-93.0321130","highlight":"0","published":"1","dist":27.9967348845
{"id":"67945","name":"Minnesota Oncology Hematology Pa","address":"1580 Beam Ave","city":"Maplewood","state":"MN","zip":"55109    ","phone":"(651) 255-8480","lat":"45.027906","lng":"-93.033959","highlight":"0","published":"1","dist":28.141007046
{"id":"67999","name":"Blue Line Llc","address":"9243 East River Road Nw","city":"Coon Rapids","state":"MN","zip":"55433    ","phone":"(612) 986-7827","lat":"45.1378585","lng":"-93.2899197","highlight":"0","published":"1","dist":28.2282728379
{"id":"67986","name":"Fridley Medical Pharmacy Inc","address":"480 Osborne Rd Ne","city":"Fridley","state":"MN","zip":"55432-2608","phone":"(763) 780-0222","lat":"45.107915","lng":"-93.2590594","highlight":"0","published":"1","dist":28.3759741926
,[45.2791243,-92.9905314,null]][[{"id":"20102","name":"KENNEDY SNYDER DRUG","address":"223 S LAKESHORE DR","city":"LAKE CITY","state":"MN","zip":"55041","phone":"","lat":"44.4485865","lng":"-92.2653796","highlight":"0","published":"1","dist":11.1999787862
{"id":"8032","name":"WABASHA PHARMACY","address":"207 W MAIN ST","city":"WABASHA","state":"MN","zip":"55981","phone":"","lat":"44.3840364","lng":"-92.0328299","highlight":"0","published":"1","dist":29.7925962722
{"id":"17540","name":"HEIKE PHARMACY INC","address":"213 W MAIN ST","city":"DURAND","state":"WI","zip":"54736","phone":"","lat":"44.6285068","lng":"-91.9672612","highlight":"0","published":"1","dist":31.9620095913
{"id":"17537","name":"SPRING VALLEY DRUG","address":"104 S MCKAY AVE","city":"SPRING VALLEY","state":"WI","zip":"54767","phone":"","lat":"44.8465553","lng":"-92.2384235","highlight":"0","published":"1","dist":36.1337388259
{"id":"8036","name":"ZUMBROTA MAIN STREET PHARMACY","address":"370 MAIN ST","city":"ZUMBROTA","state":"MN","zip":"55992","phone":"","lat":"44.2935581","lng":"-92.6696126","highlight":"0","published":"1","dist":36.7921570157
{"id":"17552","name":"KASSEL CITY DRUG","address":"100 N MAIN ST","city":"ALMA","state":"WI","zip":"54610","phone":"","lat":"44.3199121","lng":"-91.9147670","highlight":"1","published":"1","dist":41.5618843499
{"id":"17541","name":"FREEMAN DRUG","address":"104 S MAIN ST","city":"RIVER FALLS","state":"WI","zip":"54022","phone":"","lat":"44.8576888","lng":"-92.6264196","highlight":"0","published":"1","dist":42.5337081225
{"id":"17655","name":"MOST PHARMACY","address":"201 N BROAD ST","city":"PRESCOTT","state":"WI","zip":"54021","phone":"","lat":"44.7485540","lng":"-92.8015902","highlight":"0","published":"1","dist":43.3654160741
{"id":"8041","name":"REGINA MEDICAL CENTER PHARMACY","address":"1175 NININGER RD","city":"HASTINGS","state":"MN","zip":"55033","phone":"","lat":"44.7482460","lng":"-92.8735650","highlight":"0","published":"1","dist":48.1781516016
{"id":"17556","name":"VILLAGE PHARMACY","address":"840 MAIN ST","city":"BALDWIN","state":"WI","zip":"54002","phone":"","lat":"44.9667302","lng":"-92.3733270","highlight":"0","published":"1","dist":48.5110169784
{"id":"17542","name":"MONDOVI HEALTH MART PHARMACY","address":"122 S EAU CLAIRE ST","city":"MONDOVI","state":"WI","zip":"54755","phone":"","lat":"44.5675473","lng":"-91.6705888","highlight":"0","published":"1","dist":53.7413047656
{"id":"67925","name":"Alchemist General","address":"1518 N Broadway","city":"Rochester","state":"MN","zip":"55906    ","phone":"(507) 288-3831","lat":"44.0384754","lng":"-92.4621396","highlight":"0","published":"1","dist":55.515586988
{"id":"8024","name":"HUNT SILVER LAKE DRUG","address":"1510 N BROADWAY","city":"ROCHESTER","state":"MN","zip":"55906","phone":"","lat":"44.0384251","lng":"-92.4621220","highlight":"0","published":"1","dist":55.52087214
{"id":"17756","name":"COMMUNITY PHARMACY AT HUDSON HOSP","address":"405 STAGELINE RD","city":"HUDSON","state":"WI","zip":"54016","phone":"","lat":"44.9632589","lng":"-92.7111366","highlight":"0","published":"1","dist":56.0306836811
{"id":"8112","name":"GUIDEPOINT PHARMACY","address":"202 N BROADWAY","city":"ROCHESTER","state":"MN","zip":"55906","phone":"","lat":"44.0253743","lng":"-92.4629195","highlight":"0","published":"1","dist":56.9630244975
{"id":"8023","name":"EAGLE DRUG OF ROCHESTER INC","address":"23 SW 2ND ST","city":"ROCHESTER","state":"MN","zip":"55902","phone":"","lat":"44.0216274","lng":"-92.4639965","highlight":"0","published":"1","dist":57.3881022518
{"id":"20101","name":"BERGH PHARMACY","address":"103 RED WING","city":"KENYON","state":"MN","zip":"55946","phone":"","lat":"44.2730255","lng":"-92.9854535","highlight":"0","published":"1","dist":58.2753850631
{"id":"17571","name":"MICKLESEN DRUG INC","address":"530 2ND ST","city":"HUDSON","state":"WI","zip":"54016","phone":"","lat":"44.9754679","lng":"-92.7568866","highlight":"0","published":"1","dist":59.0978250583
{"id":"17739","name":"COUNTY MARKET PHARMACY","address":"2310 CRESTVIEW DR","city":"HUDSON","state":"WI","zip":"54016","phone":"","lat":"45.0215646","lng":"-92.6515848","highlight":"0","published":"1","dist":59.6306736321
{"id":"67982","name":"Mayo Foundation For Medical Education & Research","address":"Brackenridge Building","city":"Rochester","state":"MN","zip":"55902-3026","phone":"(507) 284-2021","lat":"43.9731715","lng":"-92.5197932","highlight":"0","published":"1","dist":63.5246936061
,[44.5308665,-92.3468195,null]][[{"id":"8036","name":"ZUMBROTA MAIN STREET PHARMACY","address":"370 MAIN ST","city":"ZUMBROTA","state":"MN","zip":"55992","phone":"","lat":"44.2935581","lng":"-92.6696126","highlight":"0","published":"1","dist":14.616570808
{"id":"20102","name":"KENNEDY SNYDER DRUG","address":"223 S LAKESHORE DR","city":"LAKE CITY","state":"MN","zip":"55041","phone":"","lat":"44.4485865","lng":"-92.2653796","highlight":"0","published":"1","dist":25.3281527936
{"id":"20101","name":"BERGH PHARMACY","address":"103 RED WING","city":"KENYON","state":"MN","zip":"55946","phone":"","lat":"44.2730255","lng":"-92.9854535","highlight":"0","published":"1","dist":35.6216491373
{"id":"17655","name":"MOST PHARMACY","address":"201 N BROAD ST","city":"PRESCOTT","state":"WI","zip":"54021","phone":"","lat":"44.7485540","lng":"-92.8015902","highlight":"0","published":"1","dist":41.7593417294
{"id":"67925","name":"Alchemist General","address":"1518 N Broadway","city":"Rochester","state":"MN","zip":"55906    ","phone":"(507) 288-3831","lat":"44.0384754","lng":"-92.4621396","highlight":"0","published":"1","dist":42.1388171827
{"id":"8024","name":"HUNT SILVER LAKE DRUG","address":"1510 N BROADWAY","city":"ROCHESTER","state":"MN","zip":"55906","phone":"","lat":"44.0384251","lng":"-92.4621220","highlight":"0","published":"1","dist":42.1445828735
{"id":"8032","name":"WABASHA PHARMACY","address":"207 W MAIN ST","city":"WABASHA","state":"MN","zip":"55981","phone":"","lat":"44.3840364","lng":"-92.0328299","highlight":"0","published":"1","dist":43.4953658466
{"id":"8112","name":"GUIDEPOINT PHARMACY","address":"202 N BROADWAY","city":"ROCHESTER","state":"MN","zip":"55906","phone":"","lat":"44.0253743","lng":"-92.4629195","highlight":"0","published":"1","dist":43.5475650093
{"id":"8023","name":"EAGLE DRUG OF ROCHESTER INC","address":"23 SW 2ND ST","city":"ROCHESTER","state":"MN","zip":"55902","phone":"","lat":"44.0216274","lng":"-92.4639965","highlight":"0","published":"1","dist":43.9367784432
{"id":"8041","name":"REGINA MEDICAL CENTER PHARMACY","address":"1175 NININGER RD","city":"HASTINGS","state":"MN","zip":"55033","phone":"","lat":"44.7482460","lng":"-92.8735650","highlight":"0","published":"1","dist":44.4356412389
{"id":"8016","name":"NORTHFIELD VILLAGE DRUG","address":"700 DIVISION ST","city":"NORTHFIELD","state":"MN","zip":"55057","phone":"","lat":"44.4528389","lng":"-93.1601795","highlight":"0","published":"1","dist":46.3967164656
{"id":"8095","name":"NORTHFIELD PHARMACY","address":"601 S WATER ST","city":"NORTHFIELD","state":"MN","zip":"55057","phone":"","lat":"44.4539676","lng":"-93.1617165","highlight":"0","published":"1","dist":46.5312224602
{"id":"67982","name":"Mayo Foundation For Medical Education & Research","address":"Brackenridge Building","city":"Rochester","state":"MN","zip":"55902-3026","phone":"(507) 284-2021","lat":"43.9731715","lng":"-92.5197932","highlight":"0","published":"1","dist":48.5858100445
{"id":"17541","name":"FREEMAN DRUG","address":"104 S MAIN ST","city":"RIVER FALLS","state":"WI","zip":"54022","phone":"","lat":"44.8576888","lng":"-92.6264196","highlight":"0","published":"1","dist":50.1389504519
{"id":"17552","name":"KASSEL CITY DRUG","address":"100 N MAIN ST","city":"ALMA","state":"WI","zip":"54610","phone":"","lat":"44.3199121","lng":"-91.9147670","highlight":"1","published":"1","dist":53.7235973284
{"id":"17540","name":"HEIKE PHARMACY INC","address":"213 W MAIN ST","city":"DURAND","state":"WI","zip":"54736","phone":"","lat":"44.6285068","lng":"-91.9672612","highlight":"0","published":"1","dist":54.3629761139
{"id":"20156","name":"HEALTH CAMPUS PHARMACY ONE","address":"200 STATE AVENUE","city":"FARIBAULT","state":"MN","zip":"55021","phone":"","lat":"44.2884073","lng":"-93.2558520","highlight":"0","published":"1","dist":55.4205449558
{"id":"17537","name":"SPRING VALLEY DRUG","address":"104 S MCKAY AVE","city":"SPRING VALLEY","state":"WI","zip":"54767","phone":"","lat":"44.8465553","lng":"-92.2384235","highlight":"0","published":"1","dist":55.7240726296
{"id":"20131","name":"BOYES PHARMACY","address":"301 CENTRAL AVE","city":"FANBAULT","state":"MN","zip":"55021","phone":"","lat":"44.2936839","lng":"-93.2682357","highlight":"0","published":"1","dist":56.2390116459
{"id":"20103","name":"ERICKSON DRUG INC","address":"20751 HOLYOKE AVE W","city":"LAKEVILLE","state":"MN","zip":"55044","phone":"","lat":"44.6487612","lng":"-93.2428412","highlight":"0","published":"1","dist":59.0225613895
,[44.4080296,-92.5792482,null]][[{"id":"67954","name":"Merwin Long Term Care, Inc.","address":"124 Emerson St N","city":"Cambridge","state":"MN","zip":"55008    ","phone":"(763) 689-9300","lat":"45.5729916","lng":"-93.2164518","highlight":"0","published":"1","dist":7.4198348939
{"id":"20128","name":"COUNTY VALU PHARMACY","address":"615 MAIN ST","city":"NORTH BRANCH","state":"MN","zip":"55056","phone":"","lat":"45.5114329","lng":"-92.9775477","highlight":"0","published":"1","dist":22.2457029057
{"id":"8159","name":"GOODRICH PHARMACY ST FRANCIS","address":"23122 ST FRANCIS BLVD","city":"ST FRANCIS","state":"MN","zip":"55070","phone":"","lat":"45.3890930","lng":"-93.3696480","highlight":"0","published":"1","dist":30.7791440626
{"id":"8065","name":"WYOMING DRUG","address":"26710 FOREST BLVD","city":"WYOMING","state":"MN","zip":"55092","phone":"","lat":"45.3357067","lng":"-92.9985800","highlight":"0","published":"1","dist":37.0948268636
{"id":"8072","name":"CHISAGO DRUG","address":"10655 RAILROAD AVE","city":"CHISAGO CITY","state":"MN","zip":"55013","phone":"","lat":"45.3726093","lng":"-92.8903212","highlight":"0","published":"1","dist":38.0813250836
{"id":"8064","name":"LINDSTROM THRIFTY WHITE PHARMACY","address":"30699 LINCOLNROAD","city":"LINDSTROM","state":"MN","zip":"55045","phone":"","lat":"45.3925912","lng":"-92.8568254","highlight":"0","published":"1","dist":38.1523754186
{"id":"8046","name":"GORDYS PHARMACY","address":"320 SUMMIT AVE","city":"CENTER CITY","state":"MN","zip":"55012","phone":"","lat":"45.3925281","lng":"-92.8168375","highlight":"0","published":"1","dist":40.3917269171
{"id":"22963","name":"WOOD RIVER PHARMACY","address":"122 W MADISON AVE","city":"GRANTSBURG","state":"WI","zip":"54840","phone":"","lat":"45.7789400","lng":"-92.6827256","highlight":"0","published":"1","dist":42.9715957734
{"id":"7973","name":"ROLSETH DRUG CO","address":"107 LAKE ST N","city":"FOREST LAKE","state":"MN","zip":"55025","phone":"","lat":"45.2814679","lng":"-92.9842402","highlight":"0","published":"1","dist":43.0679591227
{"id":"8143","name":"GOODRICH PHARMACY ANDOVER","address":"15245 BLUE BIRD ST NW","city":"ANDOVER","state":"MN","zip":"55304","phone":"","lat":"45.2471739","lng":"-93.3043134","highlight":"0","published":"1","dist":44.2925595832
{"id":"20124","name":"MCEACHRANS HINCKLEY DRUG","address":"121 MAIN ST","city":"HINCKLEY","state":"MN","zip":"55037","phone":"","lat":"46.0157309","lng":"-92.9427487","highlight":"0","published":"1","dist":46.3849192428
{"id":"67936","name":"Goodrich Pharmacy Elk River","address":"530 3rd St","city":"Elk River","state":"MN","zip":"55330-1426","phone":"(763) 441-0764","lat":"45.304226","lng":"-93.564366","highlight":"0","published":"1","dist":46.8653042743
{"id":"7961","name":"KEMPER DRUG","address":"323 JACKSON AVE NW","city":"ELK RIVER","state":"MN","zip":"55330","phone":"","lat":"45.3039270","lng":"-93.5673810","highlight":"0","published":"1","dist":47.0352051026
{"id":"17609","name":"TANGEN DRUG INC","address":"124 N WASHINGTON ST","city":"ST CROIX FALLS","state":"WI","zip":"54024","phone":"","lat":"45.4106522","lng":"-92.6448175","highlight":"0","published":"1","dist":50.0109411376
{"id":"17696","name":"RIVER VALLEY PHARMACY","address":"208 S ADAMS ST","city":"ST CROIX FALLS","state":"WI","zip":"54024","phone":"","lat":"45.4083641","lng":"-92.6434459","highlight":"0","published":"1","dist":50.2329847815
{"id":"8204","name":"GOODRICH PHARMACY BLAINE","address":"11855 ULYSSES ST NE","city":"BLANE","state":"MN","zip":"55434","phone":"","lat":"45.1855534","lng":"-93.2377668","highlight":"0","published":"1","dist":50.45958179
{"id":"7962","name":"GOODRICH DRUG CO INC","address":"100 MONROE ST","city":"ANOKA","state":"MN","zip":"55303","phone":"","lat":"45.1967374","lng":"-93.3906260","highlight":"0","published":"1","dist":51.3642045941
{"id":"17679","name":"OSCEOLA PHARMACY","address":"120 CASCADE ST N","city":"OSCEOLA","state":"WI","zip":"54020","phone":"","lat":"45.3199791","lng":"-92.7058711","highlight":"0","published":"1","dist":52.234644957
{"id":"17698","name":"CLINIC PHARMACY","address":"2600 65TH AVE","city":"OSCEOLA","state":"WI","zip":"54020","phone":"","lat":"45.3020947","lng":"-92.7003350","highlight":"0","published":"1","dist":53.9174085675
{"id":"67974","name":"Genoa Healthcare Minnesota, Llc","address":"1930 Coon Rapids Blvd","city":"Coon Rapids","state":"MN","zip":"55433    ","phone":"(651) 583-7095","lat":"45.1597469","lng":"-93.3172037","highlight":"0","published":"1","dist":54.0383632234
,[45.638501,-93.1983052,null]][[{"id":"20124","name":"MCEACHRANS HINCKLEY DRUG","address":"121 MAIN ST","city":"HINCKLEY","state":"MN","zip":"55037","phone":"","lat":"46.0157309","lng":"-92.9427487","highlight":"0","published":"1","dist":22.3617065853
{"id":"67954","name":"Merwin Long Term Care, Inc.","address":"124 Emerson St N","city":"Cambridge","state":"MN","zip":"55008    ","phone":"(763) 689-9300","lat":"45.5729916","lng":"-93.2164518","highlight":"0","published":"1","dist":31.5810472115
{"id":"22963","name":"WOOD RIVER PHARMACY","address":"122 W MADISON AVE","city":"GRANTSBURG","state":"WI","zip":"54840","phone":"","lat":"45.7789400","lng":"-92.6827256","highlight":"0","published":"1","dist":32.4747525841
{"id":"20128","name":"COUNTY VALU PHARMACY","address":"615 MAIN ST","city":"NORTH BRANCH","state":"MN","zip":"55056","phone":"","lat":"45.5114329","lng":"-92.9775477","highlight":"0","published":"1","dist":37.9432830902
{"id":"8079","name":"LAKE COUNTRY DRUG AND GIFTS INC","address":"205 W MAIN ST","city":"ISLE","state":"MN","zip":"56342","phone":"","lat":"46.1413893","lng":"-93.4620005","highlight":"0","published":"1","dist":43.8004728898
{"id":"8089","name":"ONAMIA DRUG","address":"516 MAIN STREET","city":"ONAMIA","state":"MN","zip":"56359","phone":"","lat":"46.0706354","lng":"-93.6664457","highlight":"0","published":"1","dist":51.1370305325
{"id":"8064","name":"LINDSTROM THRIFTY WHITE PHARMACY","address":"30699 LINCOLNROAD","city":"LINDSTROM","state":"MN","zip":"55045","phone":"","lat":"45.3925912","lng":"-92.8568254","highlight":"0","published":"1","dist":53.3303457349
{"id":"8046","name":"GORDYS PHARMACY","address":"320 SUMMIT AVE","city":"CENTER CITY","state":"MN","zip":"55012","phone":"","lat":"45.3925281","lng":"-92.8168375","highlight":"0","published":"1","dist":54.4793041342
{"id":"8072","name":"CHISAGO DRUG","address":"10655 RAILROAD AVE","city":"CHISAGO CITY","state":"MN","zip":"55013","phone":"","lat":"45.3726093","lng":"-92.8903212","highlight":"0","published":"1","dist":54.621916041
{"id":"8159","name":"GOODRICH PHARMACY ST FRANCIS","address":"23122 ST FRANCIS BLVD","city":"ST FRANCIS","state":"MN","zip":"55070","phone":"","lat":"45.3890930","lng":"-93.3696480","highlight":"0","published":"1","dist":54.9411597472
{"id":"17659","name":"OLSEN AND SON DRUG","address":"24106 STATE RD 35","city":"SIREN","state":"WI","zip":"54872","phone":"","lat":"45.7886553","lng":"-92.3809491","highlight":"0","published":"1","dist":55.3956666164
{"id":"22974","name":"LUCK PHARMACY","address":"132 S MAIN ST","city":"LUCK","state":"WI","zip":"54853","phone":"","lat":"45.5738273","lng":"-92.4823653","highlight":"0","published":"1","dist":55.9839045409
{"id":"17622","name":"YELLOW RIVER PHARMACY INC","address":"7438 MAIN ST WEST","city":"WEBSTER","state":"WI","zip":"54893","phone":"","lat":"45.8774187","lng":"-92.3666135","highlight":"1","published":"1","dist":56.2565349863
{"id":"8065","name":"WYOMING DRUG","address":"26710 FOREST BLVD","city":"WYOMING","state":"MN","zip":"55092","phone":"","lat":"45.3357067","lng":"-92.9985800","highlight":"0","published":"1","dist":56.897686693
{"id":"17609","name":"TANGEN DRUG INC","address":"124 N WASHINGTON ST","city":"ST CROIX FALLS","state":"WI","zip":"54024","phone":"","lat":"45.4106522","lng":"-92.6448175","highlight":"0","published":"1","dist":59.3302821332
{"id":"17696","name":"RIVER VALLEY PHARMACY","address":"208 S ADAMS ST","city":"ST CROIX FALLS","state":"WI","zip":"54024","phone":"","lat":"45.4083641","lng":"-92.6434459","highlight":"0","published":"1","dist":59.5994419548
{"id":"7973","name":"ROLSETH DRUG CO","address":"107 LAKE ST N","city":"FOREST LAKE","state":"MN","zip":"55025","phone":"","lat":"45.2814679","lng":"-92.9842402","highlight":"0","published":"1","dist":63.0230880954
{"id":"17679","name":"OSCEOLA PHARMACY","address":"120 CASCADE ST N","city":"OSCEOLA","state":"WI","zip":"54020","phone":"","lat":"45.3199791","lng":"-92.7058711","highlight":"0","published":"1","dist":65.4672226856
{"id":"17663","name":"BALSAM LAKE PHARMACY","address":"315 MAIN ST","city":"BALSAM LAKE","state":"WI","zip":"54810","phone":"","lat":"45.4505441","lng":"-92.4537302","highlight":"0","published":"1","dist":66.0616985587
{"id":"8000","name":"FOLEY DRUG CO","address":"351 DEWEY ST","city":"FOLEY","state":"MN","zip":"56329","phone":"","lat":"45.6641261","lng":"-93.9116756","highlight":"0","published":"1","dist":66.6826939917
,[45.8432572,-93.0914372,null]][[{"id":"8041","name":"REGINA MEDICAL CENTER PHARMACY","address":"1175 NININGER RD","city":"HASTINGS","state":"MN","zip":"55033","phone":"","lat":"44.7482460","lng":"-92.8735650","highlight":"0","published":"1","dist":17.1463314138
{"id":"17655","name":"MOST PHARMACY","address":"201 N BROAD ST","city":"PRESCOTT","state":"WI","zip":"54021","phone":"","lat":"44.7485540","lng":"-92.8015902","highlight":"0","published":"1","dist":20.0763049013
{"id":"20103","name":"ERICKSON DRUG INC","address":"20751 HOLYOKE AVE W","city":"LAKEVILLE","state":"MN","zip":"55044","phone":"","lat":"44.6487612","lng":"-93.2428412","highlight":"0","published":"1","dist":23.0694268495
{"id":"8095","name":"NORTHFIELD PHARMACY","address":"601 S WATER ST","city":"NORTHFIELD","state":"MN","zip":"55057","phone":"","lat":"44.4539676","lng":"-93.1617165","highlight":"0","published":"1","dist":23.4092509363
{"id":"8016","name":"NORTHFIELD VILLAGE DRUG","address":"700 DIVISION ST","city":"NORTHFIELD","state":"MN","zip":"55057","phone":"","lat":"44.4528389","lng":"-93.1601795","highlight":"0","published":"1","dist":23.4164669837
{"id":"7963","name":"NEWPORT DRUG","address":"1644 HASTINGS AVE","city":"NEWPORT","state":"MN","zip":"55055","phone":"","lat":"44.8746675","lng":"-93.0008507","highlight":"0","published":"1","dist":30.0603713766
{"id":"20089","name":"PRO PHARMACY II INC","address":"102 5TH AVE S","city":"SOUTH ST PAUL","state":"MN","zip":"55075","phone":"","lat":"44.8897272","lng":"-93.0399130","highlight":"0","published":"1","dist":32.2033788214
{"id":"67969","name":"Prime Therapeutics Llc","address":"1305 Corporate Center Dr","city":"Eagan","state":"MN","zip":"55121    ","phone":"(888) 216-6710","lat":"44.859034","lng":"-93.163494","highlight":"0","published":"1","dist":32.4922390333
{"id":"8081","name":"HEALTHEAST PHARMACY WOODWIND","address":"1925 WOODWINDS DR","city":"WOODBURY","state":"MN","zip":"55125","phone":"","lat":"44.9223941","lng":"-92.9790822","highlight":"0","published":"1","dist":35.2132614928
{"id":"8037","name":"BLOOMINGTON DRUG","address":"509 W 98TH ST","city":"BLOOMINGTON","state":"MN","zip":"55420","phone":"","lat":"44.8263477","lng":"-93.2860464","highlight":"0","published":"1","dist":35.6868644128
{"id":"20101","name":"BERGH PHARMACY","address":"103 RED WING","city":"KENYON","state":"MN","zip":"55946","phone":"","lat":"44.2730255","lng":"-92.9854535","highlight":"0","published":"1","dist":37.1003959427
{"id":"67951","name":"Westside Community Health Services Inc","address":"153 Cesar Chavez St","city":"St Paul","state":"MN","zip":"55107    ","phone":"(651) 602-7589","lat":"44.9300736","lng":"-93.0783596","highlight":"0","published":"1","dist":37.2669606024
{"id":"7957","name":"GUERTIN PHARMACY","address":"21 CENTURY AVE S","city":"MAPLEWOOD","state":"MN","zip":"55119","phone":"","lat":"44.9409918","lng":"-92.9845405","highlight":"0","published":"1","dist":37.3010614992
{"id":"8028","name":"WEST SEVENTH PHARMACY","address":"1106 W 7TH ST","city":"ST PAUL","state":"MN","zip":"55102","phone":"","lat":"44.9251950","lng":"-93.1301000","highlight":"0","published":"1","dist":38.00838791
{"id":"17541","name":"FREEMAN DRUG","address":"104 S MAIN ST","city":"RIVER FALLS","state":"WI","zip":"54022","phone":"","lat":"44.8576888","lng":"-92.6264196","highlight":"0","published":"1","dist":38.3010654764
{"id":"67956","name":"Coagulife Pharmacy","address":"8690 Eagle Creek Parkway","city":"Savage","state":"MN","zip":"55378    ","phone":"(952) 886-9200","lat":"44.7695905","lng":"-93.3887897","highlight":"0","published":"1","dist":38.6355176796
{"id":"20161","name":"TWIN CITIES COMPOUNDING PHARMACY","address":"1746 FORD PARKWAY","city":"ST PAUL","state":"MN","zip":"55116","phone":"","lat":"44.9176790","lng":"-93.1741030","highlight":"0","published":"1","dist":38.6364036875
{"id":"8203","name":"HERRMANN THRIFTY WHITE PHARMACY","address":"744 ASH ST NE","city":"LONSDALE","state":"MN","zip":"55046","phone":"","lat":"44.4802710","lng":"-93.4172139","highlight":"1","published":"1","dist":39.0218314881
{"id":"67937","name":"Geritom Med Inc","address":"10501 Florida Ave So","city":"Bloomington","state":"MN","zip":"55438    ","phone":"(952) 854-1190","lat":"44.81347","lng":"-93.36519","highlight":"0","published":"1","dist":39.6159164071
{"id":"8073","name":"HEALTHEAST PHARMACY DOWNTOWN ST PAUL","address":"17 W EXCHANGE ST","city":"SAINT PAUL","state":"MN","zip":"55102","phone":"","lat":"44.9487785","lng":"-93.0982799","highlight":"0","published":"1","dist":39.6918068341
,[44.6060825,-92.9575607,null]][[{"id":"20128","name":"COUNTY VALU PHARMACY","address":"615 MAIN ST","city":"NORTH BRANCH","state":"MN","zip":"55056","phone":"","lat":"45.5114329","lng":"-92.9775477","highlight":"0","published":"1","dist":7.72069024166
{"id":"67954","name":"Merwin Long Term Care, Inc.","address":"124 Emerson St N","city":"Cambridge","state":"MN","zip":"55008    ","phone":"(763) 689-9300","lat":"45.5729916","lng":"-93.2164518","highlight":"0","published":"1","dist":18.3245727024
{"id":"8064","name":"LINDSTROM THRIFTY WHITE PHARMACY","address":"30699 LINCOLNROAD","city":"LINDSTROM","state":"MN","zip":"55045","phone":"","lat":"45.3925912","lng":"-92.8568254","highlight":"0","published":"1","dist":23.0690421373
{"id":"8072","name":"CHISAGO DRUG","address":"10655 RAILROAD AVE","city":"CHISAGO CITY","state":"MN","zip":"55013","phone":"","lat":"45.3726093","lng":"-92.8903212","highlight":"0","published":"1","dist":24.2135263734
{"id":"8046","name":"GORDYS PHARMACY","address":"320 SUMMIT AVE","city":"CENTER CITY","state":"MN","zip":"55012","phone":"","lat":"45.3925281","lng":"-92.8168375","highlight":"0","published":"1","dist":24.5495054156
{"id":"8065","name":"WYOMING DRUG","address":"26710 FOREST BLVD","city":"WYOMING","state":"MN","zip":"55092","phone":"","lat":"45.3357067","lng":"-92.9985800","highlight":"0","published":"1","dist":27.2884802449
{"id":"22963","name":"WOOD RIVER PHARMACY","address":"122 W MADISON AVE","city":"GRANTSBURG","state":"WI","zip":"54840","phone":"","lat":"45.7789400","lng":"-92.6827256","highlight":"0","published":"1","dist":31.9888173504
{"id":"17609","name":"TANGEN DRUG INC","address":"124 N WASHINGTON ST","city":"ST CROIX FALLS","state":"WI","zip":"54024","phone":"","lat":"45.4106522","lng":"-92.6448175","highlight":"0","published":"1","dist":32.3382404521
{"id":"17696","name":"RIVER VALLEY PHARMACY","address":"208 S ADAMS ST","city":"ST CROIX FALLS","state":"WI","zip":"54024","phone":"","lat":"45.4083641","lng":"-92.6434459","highlight":"0","published":"1","dist":32.5745530736
{"id":"7973","name":"ROLSETH DRUG CO","address":"107 LAKE ST N","city":"FOREST LAKE","state":"MN","zip":"55025","phone":"","lat":"45.2814679","lng":"-92.9842402","highlight":"0","published":"1","dist":33.2869710935
{"id":"17679","name":"OSCEOLA PHARMACY","address":"120 CASCADE ST N","city":"OSCEOLA","state":"WI","zip":"54020","phone":"","lat":"45.3199791","lng":"-92.7058711","highlight":"0","published":"1","dist":36.093740533
{"id":"8159","name":"GOODRICH PHARMACY ST FRANCIS","address":"23122 ST FRANCIS BLVD","city":"ST FRANCIS","state":"MN","zip":"55070","phone":"","lat":"45.3890930","lng":"-93.3696480","highlight":"0","published":"1","dist":37.0293059291
{"id":"17698","name":"CLINIC PHARMACY","address":"2600 65TH AVE","city":"OSCEOLA","state":"WI","zip":"54020","phone":"","lat":"45.3020947","lng":"-92.7003350","highlight":"0","published":"1","dist":37.9600277687
{"id":"22974","name":"LUCK PHARMACY","address":"132 S MAIN ST","city":"LUCK","state":"WI","zip":"54853","phone":"","lat":"45.5738273","lng":"-92.4823653","highlight":"0","published":"1","dist":38.838231609
{"id":"17663","name":"BALSAM LAKE PHARMACY","address":"315 MAIN ST","city":"BALSAM LAKE","state":"WI","zip":"54810","phone":"","lat":"45.4505441","lng":"-92.4537302","highlight":"0","published":"1","dist":43.5819583281
{"id":"8143","name":"GOODRICH PHARMACY ANDOVER","address":"15245 BLUE BIRD ST NW","city":"ANDOVER","state":"MN","zip":"55304","phone":"","lat":"45.2471739","lng":"-93.3043134","highlight":"0","published":"1","dist":44.8571639494
{"id":"8204","name":"GOODRICH PHARMACY BLAINE","address":"11855 ULYSSES ST NE","city":"BLANE","state":"MN","zip":"55434","phone":"","lat":"45.1855534","lng":"-93.2377668","highlight":"0","published":"1","dist":48.3009577265
{"id":"20124","name":"MCEACHRANS HINCKLEY DRUG","address":"121 MAIN ST","city":"HINCKLEY","state":"MN","zip":"55037","phone":"","lat":"46.0157309","lng":"-92.9427487","highlight":"0","published":"1","dist":48.452300431
{"id":"17659","name":"OLSEN AND SON DRUG","address":"24106 STATE RD 35","city":"SIREN","state":"WI","zip":"54872","phone":"","lat":"45.7886553","lng":"-92.3809491","highlight":"0","published":"1","dist":52.0464720153
{"id":"7962","name":"GOODRICH DRUG CO INC","address":"100 MONROE ST","city":"ANOKA","state":"MN","zip":"55303","phone":"","lat":"45.1967374","lng":"-93.3906260","highlight":"0","published":"1","dist":53.3460509892
,[45.5808176,-92.9812769,null]][[{"id":"8041","name":"REGINA MEDICAL CENTER PHARMACY","address":"1175 NININGER RD","city":"HASTINGS","state":"MN","zip":"55033","phone":"","lat":"44.7482460","lng":"-92.8735650","highlight":"0","published":"1","dist":5.5352286869
{"id":"17655","name":"MOST PHARMACY","address":"201 N BROAD ST","city":"PRESCOTT","state":"WI","zip":"54021","phone":"","lat":"44.7485540","lng":"-92.8015902","highlight":"0","published":"1","dist":9.21664570798
{"id":"7963","name":"NEWPORT DRUG","address":"1644 HASTINGS AVE","city":"NEWPORT","state":"MN","zip":"55055","phone":"","lat":"44.8746675","lng":"-93.0008507","highlight":"0","published":"1","dist":20.9082702775
{"id":"20089","name":"PRO PHARMACY II INC","address":"102 5TH AVE S","city":"SOUTH ST PAUL","state":"MN","zip":"55075","phone":"","lat":"44.8897272","lng":"-93.0399130","highlight":"0","published":"1","dist":23.7517350425
{"id":"8081","name":"HEALTHEAST PHARMACY WOODWIND","address":"1925 WOODWINDS DR","city":"WOODBURY","state":"MN","zip":"55125","phone":"","lat":"44.9223941","lng":"-92.9790822","highlight":"0","published":"1","dist":25.3895564158
{"id":"67969","name":"Prime Therapeutics Llc","address":"1305 Corporate Center Dr","city":"Eagan","state":"MN","zip":"55121    ","phone":"(888) 216-6710","lat":"44.859034","lng":"-93.163494","highlight":"0","published":"1","dist":27.3351728599
{"id":"7957","name":"GUERTIN PHARMACY","address":"21 CENTURY AVE S","city":"MAPLEWOOD","state":"MN","zip":"55119","phone":"","lat":"44.9409918","lng":"-92.9845405","highlight":"0","published":"1","dist":27.4991045669
{"id":"17541","name":"FREEMAN DRUG","address":"104 S MAIN ST","city":"RIVER FALLS","state":"WI","zip":"54022","phone":"","lat":"44.8576888","lng":"-92.6264196","highlight":"0","published":"1","dist":27.5655765405
{"id":"20103","name":"ERICKSON DRUG INC","address":"20751 HOLYOKE AVE W","city":"LAKEVILLE","state":"MN","zip":"55044","phone":"","lat":"44.6487612","lng":"-93.2428412","highlight":"0","published":"1","dist":27.9192963192
{"id":"67951","name":"Westside Community Health Services Inc","address":"153 Cesar Chavez St","city":"St Paul","state":"MN","zip":"55107    ","phone":"(651) 602-7589","lat":"44.9300736","lng":"-93.0783596","highlight":"0","published":"1","dist":29.1419989671
{"id":"67984","name":"Professional Pharmacy Inc","address":"1266 Helmo Ave N","city":"Oakdale","state":"MN","zip":"55128    ","phone":"(651) 645-9715","lat":"44.9671384","lng":"-92.9561945","highlight":"0","published":"1","dist":29.8971977867
{"id":"8028","name":"WEST SEVENTH PHARMACY","address":"1106 W 7TH ST","city":"ST PAUL","state":"MN","zip":"55102","phone":"","lat":"44.9251950","lng":"-93.1301000","highlight":"0","published":"1","dist":30.9034594918
{"id":"8073","name":"HEALTHEAST PHARMACY DOWNTOWN ST PAUL","address":"17 W EXCHANGE ST","city":"SAINT PAUL","state":"MN","zip":"55102","phone":"","lat":"44.9487785","lng":"-93.0982799","highlight":"0","published":"1","dist":31.7253720794
{"id":"67995","name":"Phalen Family Pharmacy Inc","address":"1001 Johnson Pkwy Ste B23","city":"Saint Paul","state":"MN","zip":"55106-3474","phone":"(651) 209-9000","lat":"44.9716027","lng":"-93.0441861","highlight":"0","published":"1","dist":32.1812856827
{"id":"20152","name":"REGIONS HOSPITAL PHARMACY","address":"640 JACKSON ST","city":"ST PAUL","state":"MN","zip":"55101","phone":"","lat":"44.9555360","lng":"-93.0954190","highlight":"0","published":"1","dist":32.2686733645
{"id":"67965","name":"West Side Community Heatlh Services Inc","address":"860 Arcade St","city":"St Paul","state":"MN","zip":"55106    ","phone":"(651) 793-2250","lat":"44.9673375","lng":"-93.0659881","highlight":"0","published":"1","dist":32.4048201607
{"id":"17571","name":"MICKLESEN DRUG INC","address":"530 2ND ST","city":"HUDSON","state":"WI","zip":"54016","phone":"","lat":"44.9754679","lng":"-92.7568866","highlight":"0","published":"1","dist":32.4226697223
{"id":"67958","name":"Gillette Children's Hospital","address":"200 University Ave E","city":"St Paul","state":"MN","zip":"55101    ","phone":"(651) 726-2890","lat":"44.9568235","lng":"-93.0962931","highlight":"0","published":"1","dist":32.4272372183
{"id":"20161","name":"TWIN CITIES COMPOUNDING PHARMACY","address":"1746 FORD PARKWAY","city":"ST PAUL","state":"MN","zip":"55116","phone":"","lat":"44.9176790","lng":"-93.1741030","highlight":"0","published":"1","dist":32.458594967
{"id":"8166","name":"RAINBOW PHARMACY","address":"892 ARCADE STREET","city":"SAINT PAUL","state":"MN","zip":"55106","phone":"","lat":"44.9682450","lng":"-93.0659540","highlight":"0","published":"1","dist":32.4957572576
,[44.7014938,-92.8976254,null]][[{"id":"20124","name":"MCEACHRANS HINCKLEY DRUG","address":"121 MAIN ST","city":"HINCKLEY","state":"MN","zip":"55037","phone":"","lat":"46.0157309","lng":"-92.9427487","highlight":"0","published":"1","dist":20.9940841349
{"id":"67954","name":"Merwin Long Term Care, Inc.","address":"124 Emerson St N","city":"Cambridge","state":"MN","zip":"55008    ","phone":"(763) 689-9300","lat":"45.5729916","lng":"-93.2164518","highlight":"0","published":"1","dist":34.1181772806
{"id":"22963","name":"WOOD RIVER PHARMACY","address":"122 W MADISON AVE","city":"GRANTSBURG","state":"WI","zip":"54840","phone":"","lat":"45.7789400","lng":"-92.6827256","highlight":"0","published":"1","dist":35.3728910751
{"id":"8079","name":"LAKE COUNTRY DRUG AND GIFTS INC","address":"205 W MAIN ST","city":"ISLE","state":"MN","zip":"56342","phone":"","lat":"46.1413893","lng":"-93.4620005","highlight":"0","published":"1","dist":39.9615720899
{"id":"20128","name":"COUNTY VALU PHARMACY","address":"615 MAIN ST","city":"NORTH BRANCH","state":"MN","zip":"55056","phone":"","lat":"45.5114329","lng":"-92.9775477","highlight":"0","published":"1","dist":41.5977329006
{"id":"8089","name":"ONAMIA DRUG","address":"516 MAIN STREET","city":"ONAMIA","state":"MN","zip":"56359","phone":"","lat":"46.0706354","lng":"-93.6664457","highlight":"0","published":"1","dist":47.7034730823
{"id":"8064","name":"LINDSTROM THRIFTY WHITE PHARMACY","address":"30699 LINCOLNROAD","city":"LINDSTROM","state":"MN","zip":"55045","phone":"","lat":"45.3925912","lng":"-92.8568254","highlight":"0","published":"1","dist":57.0993993093
{"id":"8159","name":"GOODRICH PHARMACY ST FRANCIS","address":"23122 ST FRANCIS BLVD","city":"ST FRANCIS","state":"MN","zip":"55070","phone":"","lat":"45.3890930","lng":"-93.3696480","highlight":"0","published":"1","dist":57.1419851527
{"id":"17659","name":"OLSEN AND SON DRUG","address":"24106 STATE RD 35","city":"SIREN","state":"WI","zip":"54872","phone":"","lat":"45.7886553","lng":"-92.3809491","highlight":"0","published":"1","dist":57.9461575996
{"id":"17622","name":"YELLOW RIVER PHARMACY INC","address":"7438 MAIN ST WEST","city":"WEBSTER","state":"WI","zip":"54893","phone":"","lat":"45.8774187","lng":"-92.3666135","highlight":"1","published":"1","dist":58.2634973791
{"id":"8046","name":"GORDYS PHARMACY","address":"320 SUMMIT AVE","city":"CENTER CITY","state":"MN","zip":"55012","phone":"","lat":"45.3925281","lng":"-92.8168375","highlight":"0","published":"1","dist":58.2889439368
{"id":"8072","name":"CHISAGO DRUG","address":"10655 RAILROAD AVE","city":"CHISAGO CITY","state":"MN","zip":"55013","phone":"","lat":"45.3726093","lng":"-92.8903212","highlight":"0","published":"1","dist":58.3345199447
{"id":"22974","name":"LUCK PHARMACY","address":"132 S MAIN ST","city":"LUCK","state":"WI","zip":"54853","phone":"","lat":"45.5738273","lng":"-92.4823653","highlight":"0","published":"1","dist":59.5361002603
{"id":"8065","name":"WYOMING DRUG","address":"26710 FOREST BLVD","city":"WYOMING","state":"MN","zip":"55092","phone":"","lat":"45.3357067","lng":"-92.9985800","highlight":"0","published":"1","dist":60.3899024232
{"id":"17609","name":"TANGEN DRUG INC","address":"124 N WASHINGTON ST","city":"ST CROIX FALLS","state":"WI","zip":"54024","phone":"","lat":"45.4106522","lng":"-92.6448175","highlight":"0","published":"1","dist":63.1977567075
{"id":"17696","name":"RIVER VALLEY PHARMACY","address":"208 S ADAMS ST","city":"ST CROIX FALLS","state":"WI","zip":"54024","phone":"","lat":"45.4083641","lng":"-92.6434459","highlight":"0","published":"1","dist":63.4670635255
{"id":"8000","name":"FOLEY DRUG CO","address":"351 DEWEY ST","city":"FOLEY","state":"MN","zip":"56329","phone":"","lat":"45.6641261","lng":"-93.9116756","highlight":"0","published":"1","dist":65.6811211128
{"id":"7973","name":"ROLSETH DRUG CO","address":"107 LAKE ST N","city":"FOREST LAKE","state":"MN","zip":"55025","phone":"","lat":"45.2814679","lng":"-92.9842402","highlight":"0","published":"1","dist":66.5220574677
{"id":"17679","name":"OSCEOLA PHARMACY","address":"120 CASCADE ST N","city":"OSCEOLA","state":"WI","zip":"54020","phone":"","lat":"45.3199791","lng":"-92.7058711","highlight":"0","published":"1","dist":69.3156903356
{"id":"17663","name":"BALSAM LAKE PHARMACY","address":"315 MAIN ST","city":"BALSAM LAKE","state":"WI","zip":"54810","phone":"","lat":"45.4505441","lng":"-92.4537302","highlight":"0","published":"1","dist":69.8047992703
,[45.8722133,-93.1191716,null]]